{
"type": "FeatureCollection",
"name": "health_facilities",
"crs": { "type": "name", "properties": { "name": "urn:ogc:def:crs:EPSG::32630" } },
"features": [
{ "type": "Feature", "properties": { "Region": "Volta", "District": "North Tongu", "FacilityNa": "Volo Health Centre", "Type": "Health Centre", "Town": "Volo", "Ownership": "Government", "Latitude": 6.06115, "Longitude": 0.30833 }, "geometry": { "type": "Point", "coordinates": [ 866290.398636068683118, 671081.784038451500237 ] } },
{ "type": "Feature", "properties": { "Region": "Volta", "District": "North Tongu", "FacilityNa": "Dofor Adidome Health Centre", "Type": "Health Centre", "Town": "Dofor Adidome", "Ownership": "Government", "Latitude": 6.11891, "Longitude": 0.2442 }, "geometry": { "type": "Point", "coordinates": [ 859144.070321516599506, 677433.842785648768768 ] } },
{ "type": "Feature", "properties": { "Region": "Volta", "District": "North Tongu", "FacilityNa": "Torgome Health Centre", "Type": "Health Centre", "Town": "Torgome", "Ownership": "Government", "Latitude": 6.11701, "Longitude": 0.13748 }, "geometry": { "type": "Point", "coordinates": [ 847319.201663382584229, 677153.225404640776105 ] } },
{ "type": "Feature", "properties": { "Region": "Volta", "District": "North Tongu", "FacilityNa": "Fodzoku Health Centre", "Type": "Health Centre", "Town": "Fodzoku", "Ownership": "Government", "Latitude": 6.16198, "Longitude": 0.12466 }, "geometry": { "type": "Point", "coordinates": [ 845869.572457180125639, 682123.332604191266 ] } },
{ "type": "Feature", "properties": { "Region": "Volta", "District": "North Tongu", "FacilityNa": "Juapong Health Centre", "Type": "Health Centre", "Town": "Juapong", "Ownership": "Government", "Latitude": 6.25848, "Longitude": 0.1406 }, "geometry": { "type": "Point", "coordinates": [ 847572.299602295737714, 692816.886106867226772 ] } },
{ "type": "Feature", "properties": { "Region": "Volta", "District": "North Tongu", "FacilityNa": "Podoe Health Centre", "Type": "Health Centre", "Town": "Podoe", "Ownership": "Government", "Latitude": 6.29884, "Longitude": 0.19677 }, "geometry": { "type": "Point", "coordinates": [ 853767.666883310768753, 697322.802011071587913 ] } },
{ "type": "Feature", "properties": { "Region": "Volta", "District": "North Tongu", "FacilityNa": "Battor Mission. Hospital", "Type": "Hospital", "Town": "Battor", "Ownership": "CHAG", "Latitude": 6.06849, "Longitude": 0.40122 }, "geometry": { "type": "Point", "coordinates": [ 876581.595417042612098, 671958.305664748884737 ] } },
{ "type": "Feature", "properties": { "Region": "Volta", "District": "North Tongu", "FacilityNa": "Woekpoe CHPS", "Type": "CHPS", "Town": "Woekpoe", "Ownership": "Government", "Latitude": 6.1525679, "Longitude": 0.37483539999993798 }, "geometry": { "type": "Point", "coordinates": [ 873598.519646545755677, 681250.078761206706986 ] } },
{ "type": "Feature", "properties": { "Region": "Volta", "District": "North Tongu", "FacilityNa": "Mafi Agoe CHPS", "Type": "CHPS", "Town": "Agoe", "Ownership": "Government", "Latitude": 6.1525679, "Longitude": 0.37483539999993798 }, "geometry": { "type": "Point", "coordinates": [ 873598.519646545755677, 681250.078761206706986 ] } },
{ "type": "Feature", "properties": { "Region": "Volta", "District": "North Tongu", "FacilityNa": "Kpogadzi CHPS", "Type": "CHPS", "Town": "Kpogadzi", "Ownership": "Government", "Latitude": 6.1525679, "Longitude": 0.37483539999993798 }, "geometry": { "type": "Point", "coordinates": [ 873598.519646545755677, 681250.078761206706986 ] } },
{ "type": "Feature", "properties": { "Region": "Volta", "District": "North Tongu", "FacilityNa": "Mafi Agoe CHPS", "Type": "CHPS", "Town": "Mafi Agoe", "Ownership": "Government", "Latitude": 6.1525679, "Longitude": 0.37483539999993798 }, "geometry": { "type": "Point", "coordinates": [ 873598.519646545755677, 681250.078761206706986 ] } },
{ "type": "Feature", "properties": { "Region": "Volta", "District": "North Tongu", "FacilityNa": "Fame Clinic", "Type": "Clinic", "Town": "Kpoviadzi", "Ownership": "Private", "Latitude": 6.1525679, "Longitude": 0.37483539999993798 }, "geometry": { "type": "Point", "coordinates": [ 873598.519646545755677, 681250.078761206706986 ] } },
{ "type": "Feature", "properties": { "Region": "Volta", "District": "North Tongu", "FacilityNa": "Avedotoe CHPS", "Type": "CHPS", "Town": "Kpogadzi", "Ownership": "Government", "Latitude": 6.1525679, "Longitude": 0.37483539999993798 }, "geometry": { "type": "Point", "coordinates": [ 873598.519646545755677, 681250.078761206706986 ] } }
]
}
